{"type": "FeatureCollection", "features": [{"type": "Feature", "id": 279832318, "geometry": {"type": "Point", "coordinates": [1.014638, 42.393595]}, "properties": {"created_by": "JOSM", "historic": "monument", "name": "Esgl\u00e9sia de Sant Quiri"}}, {"type": "Feature", "id": 1471040901, "geometry": {"type": "Point", "coordinates": [1.123002, 42.627877]}, "properties": {"denomination": "Christianity (church)", "historic": "monument", "name": "Esgl\u00e9sia rom\u00e0nica", "name:ca": "Esgl\u00e9sia rom\u00e0nica", "religion": "christian", "time": "2011-10-17T11:27:03Z"}}, {"type": "Feature", "id": 1471040912, "geometry": {"type": "Point", "coordinates": [1.123136, 42.629043]}, "properties": {"historic": "monument", "name": "Creu del terme", "name:ca": "Creu del terme", "time": "2011-10-17T16:58:31Z"}}, {"type": "Feature", "id": 1471040961, "geometry": {"type": "Point", "coordinates": [1.123511, 42.628053]}, "properties": {"access": "yes", "ele": "960", "historic": "monument", "material": "stone", "name": "Pont rom\u00e0nic", "time": "2011-10-17T11:30:57Z", "wikidata": "Q18696747", "wikipedia": "ca:Pont d'Esterri"}}, {"type": "Feature", "id": 1474079064, "geometry": {"type": "Point", "coordinates": [1.123607, 42.628772]}, "properties": {"historic": "monument", "name": "Casa Vigat\u00e0"}}, {"type": "Feature", "id": 1899095253, "geometry": {"type": "Point", "coordinates": [0.490279, 42.51226]}, "properties": {"historic": "monument", "name": "Cruz de Piedra"}}, {"type": "Feature", "id": 2870699575, "geometry": {"type": "Point", "coordinates": [0.708504, 42.477077]}, "properties": {"historic": "monument", "name": "Dolmen de Lla\u00fcnes"}}, {"type": "Feature", "id": 3028560282, "geometry": {"type": "Point", "coordinates": [0.431691, 42.816473]}, "properties": {"historic": "monument", "name": "Vierge"}}, {"type": "Feature", "id": 3804943867, "geometry": {"type": "Point", "coordinates": [0.710116, 42.48749]}, "properties": {"historic": "monument", "name": "Menhir de Xerbust\u00e9"}}, {"type": "Feature", "id": 3804945318, "geometry": {"type": "Point", "coordinates": [0.706566, 42.48337]}, "properties": {"historic": "monument", "name": "Menhir de l'Obago"}}, {"type": "Feature", "id": 3804946990, "geometry": {"type": "Point", "coordinates": [0.702617, 42.474576]}, "properties": {"historic": "monument", "name": "Cabana de les Escomes"}}, {"type": "Feature", "id": 3804948657, "geometry": {"type": "Point", "coordinates": [0.708546, 42.47782]}, "properties": {"historic": "monument", "name": "Dolmen del Solano"}}, {"type": "Feature", "id": 4343389296, "geometry": {"type": "Point", "coordinates": [1.25653, 42.644387]}, "properties": {"historic": "monument", "name": "Aiguadera"}}, {"type": "Feature", "id": 4360173364, "geometry": {"type": "Point", "coordinates": [0.997719, 42.509244]}, "properties": {"historic": "monument"}}, {"type": "Feature", "id": 4360173372, "geometry": {"type": "Point", "coordinates": [0.996525, 42.509873]}, "properties": {"historic": "monument"}}, {"type": "Feature", "id": 4639857135, "geometry": {"type": "Point", "coordinates": [1.27111, 42.234203]}, "properties": {"historic": "monument", "name": "Monument a Mn. Cebri\u00e0 Baraut"}}, {"type": "Feature", "id": 4657637522, "geometry": {"type": "Point", "coordinates": [0.713124, 42.812228]}, "properties": {"historic": "monument", "name": "Haro"}}, {"type": "Feature", "id": 4801273991, "geometry": {"type": "Point", "coordinates": [0.53714, 42.282785]}, "properties": {"historic": "monument", "historic:civilization": "roman_and_byzantine_egyptian", "name": "Puente Rom\u00e1nico", "tourism": "attraction"}}, {"type": "Feature", "id": 5744900421, "geometry": {"type": "Point", "coordinates": [0.822775, 42.368539]}, "properties": {"historic": "monument", "name": "Molino", "name:ca": "Mol\u00ed"}}, {"type": "Feature", "id": 7047315228, "geometry": {"type": "Point", "coordinates": [0.903846, 42.707715]}, "properties": {"artist_name": "Marta Solsona", "historic": "monument", "material": "steel", "name": "Era Querim\u00f2nia"}}, {"type": "Feature", "id": 8269638817, "geometry": {"type": "Point", "coordinates": [0.659803, 42.832081]}, "properties": {"historic": "monument", "name": "F396E"}}, {"type": "Feature", "id": 8677002383, "geometry": {"type": "Point", "coordinates": [0.478359, 42.612247]}, "properties": {"access": "yes", "historic": "monument", "name": "Fundici\u00f3n del Freixenal"}}, {"type": "Feature", "id": 8736661030, "geometry": {"type": "Point", "coordinates": [0.948132, 42.335064]}, "properties": {"access": "yes", "historic": "monument", "name": "Rodet de Turbina Francis", "name:ca": "Rodet de Turbina Francis", "source": "survey"}}, {"type": "Feature", "id": 8872915618, "geometry": {"type": "Point", "coordinates": [0.797562, 42.700871]}, "properties": {"historic": "monument", "name": "Companyia escaladors i esquiadors"}}, {"type": "Feature", "id": 8873334510, "geometry": {"type": "Point", "coordinates": [0.795995, 42.702601]}, "properties": {"historic": "monument", "image": "https://i.imgur.com/RWWtK6f.jpg", "name": "Aran per sa lengua"}}, {"type": "Feature", "id": 8892237717, "geometry": {"type": "Point", "coordinates": [0.872673, 42.700541]}, "properties": {"historic": "monument", "name": "Gaspar de Portol\u00e0"}}, {"type": "Feature", "id": 11217791953, "geometry": {"type": "Point", "coordinates": [0.979063, 42.664327]}, "properties": {"historic": "monument", "image": "https://i.imgur.com/fdjzFP2.jpg", "name": "La Peeter"}}, {"type": "Feature", "id": 11218066133, "geometry": {"type": "Point", "coordinates": [0.798748, 42.702222]}, "properties": {"description": "antigues telecadires", "historic": "monument", "image": "https://i.imgur.com/AszdC6P.jpg"}}, {"type": "Feature", "id": 11226466437, "geometry": {"type": "Point", "coordinates": [0.763536, 42.626045]}, "properties": {"description": "vagoneta extracci\u00f3 mineral", "historic": "monument", "image": "https://i.imgur.com/SmXq2iW.jpg", "image:0": "https://i.imgur.com/IDNSE2e.jpg"}}, {"type": "Feature", "id": 377129889, "geometry": {"type": "LineString", "coordinates": [[0.715743, 42.476483], [0.715784, 42.476404], [0.715863, 42.476465], [0.715834, 42.476511], [0.715743, 42.476483]]}, "properties": {"historic": "monument", "name": "Pres\u00f3 vella", "name:ca": "Pres\u00f3 vella"}}, {"type": "Feature", "id": 395224906, "geometry": {"type": "LineString", "coordinates": [[1.394586, 42.444522], [1.39443, 42.444488], [1.394426, 42.444516], [1.394382, 42.444505], [1.394381, 42.444573], [1.394381, 42.444578], [1.394414, 42.444579], [1.394411, 42.444613], [1.394452, 42.444615], [1.394463, 42.444621], [1.394474, 42.444621], [1.394479, 42.44462], [1.394486, 42.444619], [1.394491, 42.444615], [1.394498, 42.444606], [1.394511, 42.444584], [1.39455, 42.444593], [1.394586, 42.444522]]}, "properties": {"amenity": "place_of_worship", "building": "church", "denomination": "catholic", "historic": "monument", "name": "Sant Mart\u00ed d'Ars", "name:ca": "Sant Mart\u00ed d'Ars", "protection_title": "Bien Cultural de Inter\u00e9s Nacional", "religion": "christian", "start_date": "C11", "wikidata": "Q18007044", "wikipedia": "ca:Sant Mart\u00ed d'Ars"}}]}